{"22418614": {"address": {"address_1": " 625 6th Ave", "address_2": "2nd Floor", "city": "New York", "region": "NY", "postal_code": "10011", "country": "US", "latitude": "40.74033560000001", "longitude": "-73.99518590000002", "localized_address_display": " 625 6th Ave 2nd Floor, New York, NY 10011", "localized_area_display": "New York, NY", "localized_multi_line_address_display": [" 625 6th Ave", "2nd Floor", "New York, NY 10011"]}, "resource_uri": "https://www.eventbriteapi.com/v3/venues/22418614/", "id": "22418614", "name": null, "latitude": "40.74033560000001", "longitude": "-73.99518590000002"}, "21221660": {"address": {"address_1": "Various Locations", "address_2": null, "city": "Brooklyn", "region": "NY", "postal_code": "11217", "country": "US", "latitude": "40.6826452", "longitude": "-73.97676860000001", "localized_address_display": "Various Locations, Brooklyn, NY 11217", "localized_area_display": "Brooklyn, NY", "localized_multi_line_address_display": ["Various Locations", "Brooklyn, NY 11217"]}, "resource_uri": "https://www.eventbriteapi.com/v3/venues/21221660/", "id": "21221660", "name": "Brooklyn", "latitude": "40.6826452", "longitude": "-73.97676860000001"}, "22339615": {"address": {"address_1": "44 East 32nd Street", "address_2": null, "city": "New York", "region": "NY", "postal_code": "10010", "country": "US", "latitude": "40.7459751", "longitude": "-73.9829183", "localized_address_display": "44 East 32nd Street, New York, NY 10010", "localized_area_display": "New York, NY", "localized_multi_line_address_display": ["44 East 32nd Street", "New York, NY 10010"]}, "resource_uri": "https://www.eventbriteapi.com/v3/venues/22339615/", "id": "22339615", "name": "The Cutting Room", "latitude": "40.7459751", "longitude": "-73.9829183"}, "22378285": {"address": {"address_1": "667 5th Ave", "address_2": null, "city": "Brooklyn", "region": "NY", "postal_code": "11215", "country": "US", "latitude": "40.6619916", "longitude": "-73.99240270000001", "localized_address_display": "667 5th Ave, Brooklyn, NY 11215", "localized_area_display": "Brooklyn, NY", "localized_multi_line_address_display": ["667 5th Ave", "Brooklyn, NY 11215"]}, "resource_uri": "https://www.eventbriteapi.com/v3/venues/22378285/", "id": "22378285", "name": "Korzo", "latitude": "40.6619916", "longitude": "-73.99240270000001"}, "22436061": {"address": {"address_1": "2537 Broadway", "address_2": null, "city": "New York", "region": "NY", "postal_code": "10025", "country": "US", "latitude": "40.793912", "longitude": "-73.97275990000003", "localized_address_display": "2537 Broadway, New York, NY 10025", "localized_area_display": "New York, NY", "localized_multi_line_address_display": ["2537 Broadway", "New York, NY 10025"]}, "resource_uri": "https://www.eventbriteapi.com/v3/venues/22436061/", "id": "22436061", "name": "Symphony Space", "latitude": "40.793912", "longitude": "-73.97275990000003"}, "19817714": {"address": {"address_1": "Royal Regency Hotel", "address_2": "165 Tuckahoe Rd", "city": "Yonkers", "region": "NY", "postal_code": null, "country": "US", "latitude": "40.955358", "longitude": "-73.86353099999997", "localized_address_display": "Royal Regency Hotel 165 Tuckahoe Rd, Yonkers, NY", "localized_area_display": "Yonkers, NY", "localized_multi_line_address_display": ["Royal Regency Hotel", "165 Tuckahoe Rd", "Yonkers, NY"]}, "resource_uri": "https://www.eventbriteapi.com/v3/venues/19817714/", "id": "19817714", "name": "Yonkers, NY", "latitude": "40.955358", "longitude": "-73.86353099999997"}, "22343791": {"address": {"address_1": "123 W 57th St # 3", "address_2": null, "city": "New York", "region": "NY", "postal_code": "10019", "country": "US", "latitude": "40.7651005", "longitude": "-73.97837470000002", "localized_address_display": "123 W 57th St # 3, New York, NY 10019", "localized_area_display": "New York, NY", "localized_multi_line_address_display": ["123 W 57th St # 3", "New York, NY 10019"]}, "resource_uri": "https://www.eventbriteapi.com/v3/venues/22343791/", "id": "22343791", "name": "Calvary Church", "latitude": "40.7651005", "longitude": "-73.97837470000002"}, "24636": {"address": {"address_1": null, "address_2": null, "city": "New York", "region": "NY", "postal_code": null, "country": "US", "latitude": "40.7143528", "longitude": "-74.0059731", "localized_address_display": "New York, NY", "localized_area_display": "New York, NY", "localized_multi_line_address_display": ["New York, NY"]}, "resource_uri": "https://www.eventbriteapi.com/v3/venues/24636/", "id": "24636", "name": "Membership Registration", "latitude": "40.7143528", "longitude": "-74.0059731"}, "22145547": {"address": {"address_1": "120 Claremont Avenue", "address_2": null, "city": "New York", "region": "NY", "postal_code": "11027", "country": "US", "latitude": "40.8123904", "longitude": "-73.96148169999998", "localized_address_display": "120 Claremont Avenue, New York, NY 11027", "localized_area_display": "New York, NY", "localized_multi_line_address_display": ["120 Claremont Avenue", "New York, NY 11027"]}, "resource_uri": "https://www.eventbriteapi.com/v3/venues/22145547/", "id": "22145547", "name": "The Manhattan School of Music", "latitude": "40.8123904", "longitude": "-73.96148169999998"}, "17427636": {"address": {"address_1": "270 West 43rd Street", "address_2": null, "city": "New York", "region": "NY", "postal_code": "10036", "country": "US", "latitude": "40.75762400000001", "longitude": "-73.989125", "localized_address_display": "270 West 43rd Street, New York, NY 10036", "localized_area_display": "New York, NY", "localized_multi_line_address_display": ["270 West 43rd Street", "New York, NY 10036"]}, "resource_uri": "https://www.eventbriteapi.com/v3/venues/17427636/", "id": "17427636", "name": "The Westin New York at Times Square", "latitude": "40.75762400000001", "longitude": "-73.989125"}, "19376709": {"address": {"address_1": "2361 7th Avenue", "address_2": null, "city": "New York", "region": "NY", "postal_code": "10030", "country": "US", "latitude": "40.81721750000001", "longitude": "-73.94200189999998", "localized_address_display": "2361 7th Avenue, New York, NY 10030", "localized_area_display": "New York, NY", "localized_multi_line_address_display": ["2361 7th Avenue", "New York, NY 10030"]}, "resource_uri": "https://www.eventbriteapi.com/v3/venues/19376709/", "id": "19376709", "name": "Harlem Nights", "latitude": "40.81721750000001", "longitude": "-73.94200189999998"}, "21186354": {"address": {"address_1": null, "address_2": null, "city": null, "region": null, "postal_code": null, "country": "US", "latitude": "40.7605367", "longitude": "-73.97889029999999", "localized_address_display": null, "localized_area_display": null, "localized_multi_line_address_display": null}, "resource_uri": "https://www.eventbriteapi.com/v3/venues/21186354/", "id": "21186354", "name": "TBD", "latitude": "40.7605367", "longitude": "-73.97889029999999"}, "22388179": {"address": {"address_1": "251 West 48th Street", "address_2": null, "city": "New York", "region": "NY", "postal_code": "10036", "country": "US", "latitude": "40.761071", "longitude": "-73.986719", "localized_address_display": "251 West 48th Street, New York, NY 10036", "localized_area_display": "New York, NY", "localized_multi_line_address_display": ["251 West 48th Street", "New York, NY 10036"]}, "resource_uri": "https://www.eventbriteapi.com/v3/venues/22388179/", "id": "22388179", "name": "The Attic Rooftop & Lounge", "latitude": "40.761071", "longitude": "-73.986719"}, "16667645": {"address": {"address_1": "2504 Broadway", "address_2": null, "city": "New York", "region": "NY", "postal_code": "10025", "country": "US", "latitude": "40.7926923", "longitude": "-73.97269240000003", "localized_address_display": "2504 Broadway, New York, NY 10025", "localized_area_display": "New York, NY", "localized_multi_line_address_display": ["2504 Broadway", "New York, NY 10025"]}, "resource_uri": "https://www.eventbriteapi.com/v3/venues/16667645/", "id": "16667645", "name": "Advent Lutheran Church", "latitude": "40.7926923", "longitude": "-73.97269240000003"}, "12169514": {"address": {"address_1": "126 Saint Felix Street", "address_2": null, "city": "Brooklyn", "region": "NY", "postal_code": "11217", "country": "US", "latitude": "40.686152", "longitude": "-73.977326", "localized_address_display": "126 Saint Felix Street, Brooklyn, NY 11217", "localized_area_display": "Brooklyn, NY", "localized_multi_line_address_display": ["126 Saint Felix Street", "Brooklyn, NY 11217"]}, "resource_uri": "https://www.eventbriteapi.com/v3/venues/12169514/", "id": "12169514", "name": "Brooklyn Music School", "latitude": "40.686152", "longitude": "-73.977326"}, "11666823": {"address": {"address_1": "167 Scarsdale Road", "address_2": null, "city": "Tuckahoe", "region": "NY", "postal_code": "10707", "country": "US", "latitude": "40.957094", "longitude": "-73.83124700000002", "localized_address_display": "167 Scarsdale Road, Tuckahoe, NY 10707", "localized_area_display": "Tuckahoe, NY", "localized_multi_line_address_display": ["167 Scarsdale Road", "Tuckahoe, NY 10707"]}, "resource_uri": "https://www.eventbriteapi.com/v3/venues/11666823/", "id": "11666823", "name": "Asbury Crestwood United Methodist Church", "latitude": "40.957094", "longitude": "-73.83124700000002"}, "21234757": {"address": {"address_1": "1 South Ave, ", "address_2": null, "city": "Garden City", "region": "NY", "postal_code": "11530", "country": "US", "latitude": "40.7187721", "longitude": "-73.6517857", "localized_address_display": "1 South Ave, , Garden City, NY 11530", "localized_area_display": "Garden City, NY", "localized_multi_line_address_display": ["1 South Ave", "Garden City, NY 11530"]}, "resource_uri": "https://www.eventbriteapi.com/v3/venues/21234757/", "id": "21234757", "name": "Adelphi Performing Art Center", "latitude": "40.7187721", "longitude": "-73.6517857"}, "17786986": {"address": {"address_1": "101 West 123rd Street", "address_2": null, "city": "New York", "region": "NY", "postal_code": "10027", "country": "US", "latitude": "40.8067987", "longitude": "-73.94668250000001", "localized_address_display": "101 West 123rd Street, New York, NY 10027", "localized_area_display": "New York, NY", "localized_multi_line_address_display": ["101 West 123rd Street", "New York, NY 10027"]}, "resource_uri": "https://www.eventbriteapi.com/v3/venues/17786986/", "id": "17786986", "name": "Ephesus Seventh-day Adventist Church", "latitude": "40.8067987", "longitude": "-73.94668250000001"}, "22206569": {"address": {"address_1": "12 Jefferson Street", "address_2": null, "city": "Brooklyn", "region": "NY", "postal_code": "11206", "country": "US", "latitude": "40.69735790000001", "longitude": "-73.93470359999998", "localized_address_display": "12 Jefferson Street, Brooklyn, NY 11206", "localized_area_display": "Brooklyn, NY", "localized_multi_line_address_display": ["12 Jefferson Street", "Brooklyn, NY 11206"]}, "resource_uri": "https://www.eventbriteapi.com/v3/venues/22206569/", "id": "22206569", "name": "Bizarre", "latitude": "40.69735790000001", "longitude": "-73.93470359999998"}, "18013195": {"address": {"address_1": "307 West 36th Street", "address_2": "Floor 18 @ Smash Studios", "city": "New York", "region": "NY", "postal_code": "10018", "country": "US", "latitude": "40.755322", "longitude": "-73.9932872", "localized_address_display": "307 West 36th Street Floor 18 @ Smash Studios, New York, NY 10018", "localized_area_display": "New York, NY", "localized_multi_line_address_display": ["307 West 36th Street", "Floor 18 @ Smash Studios", "New York, NY 10018"]}, "resource_uri": "https://www.eventbriteapi.com/v3/venues/18013195/", "id": "18013195", "name": "Music Makers NY @ Smash Studios", "latitude": "40.755322", "longitude": "-73.9932872"}, "3140499": {"address": {"address_1": "130 W 42nd St", "address_2": null, "city": "New York", "region": "NY", "postal_code": "10036", "country": "US", "latitude": "40.75528329999999", "longitude": "-73.98548069999998", "localized_address_display": "130 W 42nd St, New York, NY 10036", "localized_area_display": "New York, NY", "localized_multi_line_address_display": ["130 W 42nd St", "New York, NY 10036"]}, "resource_uri": "https://www.eventbriteapi.com/v3/venues/3140499/", "id": "3140499", "name": "Boomset HQ", "latitude": "40.75528329999999", "longitude": "-73.98548069999998"}, "19093252": {"address": {"address_1": "318 West 53rd Street", "address_2": null, "city": "New York", "region": "NY", "postal_code": "10019", "country": "US", "latitude": "40.7644275", "longitude": "-73.9855958", "localized_address_display": "318 West 53rd Street, New York, NY 10019", "localized_area_display": "New York, NY", "localized_multi_line_address_display": ["318 West 53rd Street", "New York, NY 10019"]}, "resource_uri": "https://www.eventbriteapi.com/v3/venues/19093252/", "id": "19093252", "name": "Broadway Comedy Club", "latitude": "40.7644275", "longitude": "-73.9855958"}, "16007829": {"address": {"address_1": "2636 East 14th Street", "address_2": null, "city": "Brooklyn", "region": "NY", "postal_code": "11235", "country": "US", "latitude": "40.58702389999999", "longitude": "-73.95539400000001", "localized_address_display": "2636 East 14th Street, Brooklyn, NY 11235", "localized_area_display": "Brooklyn, NY", "localized_multi_line_address_display": ["2636 East 14th Street", "Brooklyn, NY 11235"]}, "resource_uri": "https://www.eventbriteapi.com/v3/venues/16007829/", "id": "16007829", "name": "Sheepshead Bay Public Library", "latitude": "40.58702389999999", "longitude": "-73.95539400000001"}, "19489842": {"address": {"address_1": "75-15 Woodside Avenue", "address_2": null, "city": "Queens", "region": "NY", "postal_code": "11373", "country": "US", "latitude": "40.743489", "longitude": "-73.8890968", "localized_address_display": "75-15 Woodside Avenue, Queens, NY 11373", "localized_area_display": "Queens, NY", "localized_multi_line_address_display": ["75-15 Woodside Avenue", "Queens, NY 11373"]}, "resource_uri": "https://www.eventbriteapi.com/v3/venues/19489842/", "id": "19489842", "name": "Satya Narayan Mandir", "latitude": "40.743489", "longitude": "-73.8890968"}, "19820786": {"address": {"address_1": "226 W 46th St", "address_2": null, "city": "New York", "region": "NY", "postal_code": "10036", "country": "US", "latitude": "40.7590169", "longitude": "-73.98669769999998", "localized_address_display": "226 W 46th St, New York, NY 10036", "localized_area_display": "New York, NY", "localized_multi_line_address_display": ["226 W 46th St", "New York, NY 10036"]}, "resource_uri": "https://www.eventbriteapi.com/v3/venues/19820786/", "id": "19820786", "name": "New York", "latitude": "40.7590169", "longitude": "-73.98669769999998"}, "22147888": {"address": {"address_1": "158 Bleecker Street", "address_2": null, "city": "New York", "region": "NY", "postal_code": "10012", "country": "US", "latitude": "40.72850220000001", "longitude": "-74.0000425", "localized_address_display": "158 Bleecker Street, New York, NY 10012", "localized_area_display": "New York, NY", "localized_multi_line_address_display": ["158 Bleecker Street", "New York, NY 10012"]}, "resource_uri": "https://www.eventbriteapi.com/v3/venues/22147888/", "id": "22147888", "name": "(Le) Poisson Rouge", "latitude": "40.72850220000001", "longitude": "-74.0000425"}, "12808957": {"address": {"address_1": "231 W 246th St", "address_2": null, "city": "Bronx", "region": "NY", "postal_code": "10471", "country": "US", "latitude": "40.893729", "longitude": "-73.898124", "localized_address_display": "231 W 246th St, Bronx, NY 10471", "localized_area_display": "Bronx, NY", "localized_multi_line_address_display": ["231 W 246th St", "Bronx, NY 10471"]}, "resource_uri": "https://www.eventbriteapi.com/v3/venues/12808957/", "id": "12808957", "name": "Alfred P. Gross Theatre", "latitude": "40.893729", "longitude": "-73.898124"}, "20996853": {"address": {"address_1": null, "address_2": null, "city": "New York", "region": "NY", "postal_code": null, "country": "US", "latitude": "40.7127837", "longitude": "-74.00594130000002", "localized_address_display": "New York, NY", "localized_area_display": "New York, NY", "localized_multi_line_address_display": ["New York, NY"]}, "resource_uri": "https://www.eventbriteapi.com/v3/venues/20996853/", "id": "20996853", "name": "New York 226 W 46th St New York, NY 10036", "latitude": "40.7127837", "longitude": "-74.00594130000002"}, "19454227": {"address": {"address_1": "Naval air station Alameda ", "address_2": null, "city": "ALAMEDA ", "region": "CA", "postal_code": null, "country": "US", "latitude": "40.7", "longitude": "-74.0", "localized_address_display": "Naval air station Alameda , ALAMEDA , CA", "localized_area_display": "ALAMEDA , CA", "localized_multi_line_address_display": ["Naval air station Alameda", "ALAMEDA , CA"]}, "resource_uri": "https://www.eventbriteapi.com/v3/venues/19454227/", "id": "19454227", "name": "Unknown venue as yet", "latitude": "40.7", "longitude": "-74.0"}, "18464509": {"address": {"address_1": "158 Bleecker Street", "address_2": null, "city": "New York", "region": "NY", "postal_code": "10012", "country": "US", "latitude": "40.72850220000001", "longitude": "-74.0000425", "localized_address_display": "158 Bleecker Street, New York, NY 10012", "localized_area_display": "New York, NY", "localized_multi_line_address_display": ["158 Bleecker Street", "New York, NY 10012"]}, "resource_uri": "https://www.eventbriteapi.com/v3/venues/18464509/", "id": "18464509", "name": "(Le) Poisson Rouge", "latitude": "40.72850220000001", "longitude": "-74.0000425"}, "22093168": {"address": {"address_1": "106 Harrison Avenue", "address_2": null, "city": "West Orange", "region": "NJ", "postal_code": "07052", "country": "US", "latitude": "40.79341949999999", "longitude": "-74.23262399999999", "localized_address_display": "106 Harrison Avenue, West Orange, NJ 07052", "localized_area_display": "West Orange, NJ", "localized_multi_line_address_display": ["106 Harrison Avenue", "West Orange, NJ 07052"]}, "resource_uri": "https://www.eventbriteapi.com/v3/venues/22093168/", "id": "22093168", "name": "Lyric Performing Arts Center", "latitude": "40.79341949999999", "longitude": "-74.23262399999999"}, "21886511": {"address": {"address_1": "21 A Clinton Street", "address_2": null, "city": "New York", "region": "NY", "postal_code": "10002", "country": "US", "latitude": "40.7206709", "longitude": "-73.9844567", "localized_address_display": "21 A Clinton Street, New York, NY 10002", "localized_area_display": "New York, NY", "localized_multi_line_address_display": ["21 A Clinton Street", "New York, NY 10002"]}, "resource_uri": "https://www.eventbriteapi.com/v3/venues/21886511/", "id": "21886511", "name": "CAVEAT", "latitude": "40.7206709", "longitude": "-73.9844567"}}